{
    "start": {
        "from": {
            "name": "Lyon, France",
            "lat": 45.7578137,
            "long": 4.8320114
        },
        "departure_date": "2018-10-02",
        "with": "plane"
    },
    "end": {
        "arrival_date": "2018-11-11"
    },
    "steps": {
        "bus": [
            {
                "from": {
                    "name": "Lisbon, Portugal",
                    "lat": 38.7077507,
                    "long": -9.1365919
                },
                "to": {
                    "name": "Lagos, Portugal",
                    "lat": 37.15313005,
                    "long": -8.74189647708612
                },
                "path": "",
                "arrival_date": "2018-10-19",
                "departure_date": "2018-10-22",
                "album": null
            },
            {
                "from": {
                    "name": "Faro, Portugal",
                    "lat": 37.0537571,
                    "long": -7.93193661699148
                },
                "to": {
                    "name": "Sevilla, Spain",
                    "lat": 37.3886303,
                    "long": -5.9953171
                },
                "path": "",
                "arrival_date": "2018-10-25",
                "departure_date": "2018-10-30",
                "album": null
            },
            {
                "from": {
                    "name": "Sevilla, Spain",
                    "lat": 37.3886303,
                    "long": -5.9953171
                },
                "to": {
                    "name": "M\u00e0laga, Spain",
                    "lat": 36.7213028,
                    "long": -4.4216366
                },
                "path": "",
                "arrival_date": "2018-10-30",
                "departure_date": "2018-11-03",
                "album": null
            },
            {
                "from": {
                    "name": "M\u00e0laga, Spain",
                    "lat": 36.7213028,
                    "long": -4.4216366
                },
                "to": {
                    "name": "Granada, Spain",
                    "lat": 37.183054,
                    "long": -3.6021928
                },
                "path": "",
                "arrival_date": "2018-11-03",
                "departure_date": "2018-11-07",
                "album": null
            }
        ],
        "car": [],
        "plane": [
            {
                "from": {
                    "name": "Lyon, France",
                    "lat": 45.7578137,
                    "long": 4.8320114
                },
                "to": {
                    "name": "Porto, Portugal",
                    "lat": 41.1494512,
                    "long": -8.6107884
                },
                "path": "",
                "arrival_date": "2018-10-02",
                "departure_date": "2018-10-08",
                "album": {
                    "path": ".\/albums\/porto",
                    "cover": ".\/albums\/porto\/boucle\/thumb_PA060804.JPG"
                }
            },
            {
                "from": {
                    "name": "Granada, Spain",
                    "lat": 37.183054,
                    "long": -3.6021928
                },
                "to": {
                    "name": "Barcelona, Spain",
                    "lat": 41.3828939,
                    "long": 2.1774322
                },
                "path": "",
                "arrival_date": "2018-11-07",
                "departure_date": "2018-11-11",
                "album": null
            },
            {
                "from": {
                    "name": "Barcelona, Spain",
                    "lat": 41.3828939,
                    "long": 2.1774322
                },
                "to": {
                    "name": "Lyon, France",
                    "lat": 45.7578137,
                    "long": 4.8320114
                },
                "path": "",
                "arrival_date": "2018-11-11",
                "departure_date": "",
                "album": null
            }
        ],
        "boat": [],
        "train": [
            {
                "from": {
                    "name": "Porto, Portugal",
                    "lat": 41.1494512,
                    "long": -8.6107884
                },
                "to": {
                    "name": "Coimbra, Portugal",
                    "lat": 40.2109801,
                    "long": -8.4292057
                },
                "path": "",
                "arrival_date": "2018-10-08",
                "departure_date": "2018-10-11",
                "album": null
            },
            {
                "from": {
                    "name": "Coimbra, Portugal",
                    "lat": 40.2109801,
                    "long": -8.4292057
                },
                "to": {
                    "name": "Lisbon, Portugal",
                    "lat": 38.7077507,
                    "long": -9.1365919
                },
                "path": "",
                "arrival_date": "2018-10-11",
                "departure_date": "2018-10-14",
                "album": {
                    "path": ".\/albums\/lisbon",
                    "cover": ".\/albums\/lisbon\/boucle\/thumb_PA130947.JPG"
                }
            },
            {
                "from": {
                    "name": "Lisbon, Portugal",
                    "lat": 38.7077507,
                    "long": -9.1365919
                },
                "to": {
                    "name": "Sintra, Portugal",
                    "lat": 38.8355605,
                    "long": -9.35222525884862
                },
                "path": "",
                "arrival_date": "2018-10-14",
                "departure_date": "2018-10-14",
                "album": null
            },
            {
                "from": {
                    "name": "Sintra, Portugal",
                    "lat": 38.8355605,
                    "long": -9.35222525884862
                },
                "to": {
                    "name": "Lisbon, Portugal",
                    "lat": 38.7077507,
                    "long": -9.1365919
                },
                "path": "",
                "arrival_date": "2018-10-14",
                "departure_date": "2018-10-19",
                "album": null
            },
            {
                "from": {
                    "name": "Lagos, Portugal",
                    "lat": 37.15313005,
                    "long": -8.74189647708612
                },
                "to": {
                    "name": "Faro, Portugal",
                    "lat": 37.0537571,
                    "long": -7.93193661699148
                },
                "path": "",
                "arrival_date": "2018-10-22",
                "departure_date": "2018-10-25",
                "album": null
            }
        ],
        "walking": []
    }
}