{
    "start": {
        "from": {
            "name": "Clermont-Ferrand, France",
            "lat": 45.7774551,
            "long": 3.0819427
        },
        "departure_date": "2018-08-28",
        "with": "bus"
    },
    "end": {
        "arrival_date": "2018-09-15"
    },
    "steps": {
        "bus": [
            {
                "from": {
                    "name": "Clermont-Ferrand, France",
                    "lat": 45.7774551,
                    "long": 3.0819427
                },
                "to": {
                    "name": "Lyon, France",
                    "lat": 45.7578137,
                    "long": 4.8320114
                },
                "path": "",
                "arrival_date": "2018-08-28",
                "departure_date": "2018-08-31",
                "album": null
            }
        ],
        "car": [
            {
                "from": {
                    "name": "Edinburgh, Scotland",
                    "lat": 55.9496416,
                    "long": -3.1902352
                },
                "to": {
                    "name": "Cairngorms National Park, Scotland",
                    "lat": 57.0770909,
                    "long": -3.60915727387858
                },
                "path": "",
                "arrival_date": "2018-09-04",
                "departure_date": "2018-09-06",
                "album": {
                    "path": ".\/albums\/cairngorms",
                    "cover": ".\/albums\/cairngorms\/boucle\/thumb_P9040139.JPG"
                }
            },
            {
                "from": {
                    "name": "Cairngorms National Park, Scotland",
                    "lat": 57.0770909,
                    "long": -3.60915727387858
                },
                "to": {
                    "name": "Inverness, Scotland",
                    "lat": 57.4790124,
                    "long": -4.225739
                },
                "path": "",
                "arrival_date": "2018-09-06",
                "departure_date": "2018-09-07",
                "album": null
            },
            {
                "from": {
                    "name": "Inverness, Scotland",
                    "lat": 57.4790124,
                    "long": -4.225739
                },
                "to": {
                    "name": "Eilean Donan Castle, Scotland",
                    "lat": 57.27386745,
                    "long": -5.51603354701258
                },
                "path": "",
                "arrival_date": "2018-09-07",
                "departure_date": "2018-09-07",
                "album": {
                    "path": ".\/albums\/eilean",
                    "cover": ".\/albums\/eilean\/boucle\/thumb_IMG_20180907_125206.jpg"
                }
            },
            {
                "from": {
                    "name": "Eilean Donan Castle, Scotland",
                    "lat": 57.27386745,
                    "long": -5.51603354701258
                },
                "to": {
                    "name": "Sligachan Old Bridge, Scotland",
                    "lat": 57.2898229,
                    "long": -6.1755113
                },
                "path": "",
                "arrival_date": "2018-09-07",
                "departure_date": "2018-09-08",
                "album": null
            },
            {
                "from": {
                    "name": "Sligachan Old Bridge, Scotland",
                    "lat": 57.2898229,
                    "long": -6.1755113
                },
                "to": {
                    "name": "The Old Man of Storr, Scotland",
                    "lat": 57.5071103,
                    "long": -6.191838
                },
                "path": "",
                "arrival_date": "2018-09-08",
                "departure_date": "2018-09-07",
                "album": {
                    "path": ".\/albums\/storr",
                    "cover": ".\/albums\/storr\/boucle\/thumb_P9080279.JPG"
                }
            },
            {
                "from": {
                    "name": "The Old Man of Storr, Scotland",
                    "lat": 57.5071103,
                    "long": -6.191838
                },
                "to": {
                    "name": "The Brother's Point, Scotland",
                    "lat": 57.5860106,
                    "long": -6.1406717
                },
                "path": "",
                "arrival_date": "2018-09-07",
                "departure_date": "2018-09-07",
                "album": {
                    "path": ".\/albums\/brothers_point",
                    "cover": ".\/albums\/brothers_point\/boucle\/thumb_P9070218.JPG"
                }
            },
            {
                "from": {
                    "name": "The Brother's Point, Scotland",
                    "lat": 57.5860106,
                    "long": -6.1406717
                },
                "to": {
                    "name": "Kilt Rock and Mealt Falls Viewpoint, Scotland",
                    "lat": 57.6065783,
                    "long": -6.1821657
                },
                "path": "",
                "arrival_date": "2018-09-07",
                "departure_date": "2018-09-08",
                "album": {
                    "path": ".\/albums\/mealt_falls",
                    "cover": ".\/albums\/mealt_falls\/boucle\/thumb_P9070238.JPG"
                }
            },
            {
                "from": {
                    "name": "Kilt Rock and Mealt Falls Viewpoint, Scotland",
                    "lat": 57.6065783,
                    "long": -6.1821657
                },
                "to": {
                    "name": "Quiraing, Scotland",
                    "lat": 57.6213943,
                    "long": -6.2664249
                },
                "path": "",
                "arrival_date": "2018-09-08",
                "departure_date": "2018-09-08",
                "album": {
                    "path": ".\/albums\/quiraing",
                    "cover": ".\/albums\/quiraing\/boucle\/thumb_P9080302.JPG"
                }
            },
            {
                "from": {
                    "name": "Quiraing, Scotland",
                    "lat": 57.6213943,
                    "long": -6.2664249
                },
                "to": {
                    "name": "Fairy Glen, Scotland",
                    "lat": 57.5825718,
                    "long": -6.3274501
                },
                "path": "",
                "arrival_date": "2018-09-08",
                "departure_date": "2018-09-08",
                "album": {
                    "path": ".\/albums\/fairy_glen",
                    "cover": ".\/albums\/fairy_glen\/boucle\/thumb_IMG_20180915_162228_136.jpg"
                }
            },
            {
                "from": {
                    "name": "Fairy Glen, Scotland",
                    "lat": 57.5825718,
                    "long": -6.3274501
                },
                "to": {
                    "name": "Coral Beach, Scotland",
                    "lat": 57.5008642,
                    "long": -6.6393658
                },
                "path": "",
                "arrival_date": "2018-09-08",
                "departure_date": "2018-09-08",
                "album": {
                    "path": ".\/albums\/coral_beach",
                    "cover": ".\/albums\/coral_beach\/boucle\/thumb_IMG_20180908_154528-PANO.jpg"
                }
            },
            {
                "from": {
                    "name": "Coral Beach, Scotland",
                    "lat": 57.5008642,
                    "long": -6.6393658
                },
                "to": {
                    "name": "Neist Point Lighthouse, Scotland",
                    "lat": 57.4234609,
                    "long": -6.7904507
                },
                "path": "",
                "arrival_date": "2018-09-08",
                "departure_date": "2018-09-09",
                "album": {
                    "path": ".\/albums\/neist_point",
                    "cover": ".\/albums\/neist_point\/boucle\/thumb_P9080422.JPG"
                }
            },
            {
                "from": {
                    "name": "Neist Point Lighthouse, Scotland",
                    "lat": 57.4234609,
                    "long": -6.7904507
                },
                "to": {
                    "name": "Portree, Scotland",
                    "lat": 57.4130532,
                    "long": -6.194446
                },
                "path": "",
                "arrival_date": "2018-09-09",
                "departure_date": "2018-09-10",
                "album": null
            },
            {
                "from": {
                    "name": "Portree, Scotland",
                    "lat": 57.4130532,
                    "long": -6.194446
                },
                "to": {
                    "name": "Fairy Pools, Scotland",
                    "lat": 57.2503431,
                    "long": -6.2604841
                },
                "path": "",
                "arrival_date": "2018-09-10",
                "departure_date": "2018-09-10",
                "album": {
                    "path": ".\/albums\/fairy_pools",
                    "cover": ".\/albums\/fairy_pools\/boucle\/thumb_IMG_20180910_122957.jpg"
                }
            },
            {
                "from": {
                    "name": "Fairy Pools, Scotland",
                    "lat": 57.2503431,
                    "long": -6.2604841
                },
                "to": {
                    "name": "Elgol, Scotland",
                    "lat": 57.1492841,
                    "long": -6.1012529
                },
                "path": "",
                "arrival_date": "2018-09-10",
                "departure_date": "2018-09-10",
                "album": null
            },
            {
                "from": {
                    "name": "Elgol, Scotland",
                    "lat": 57.1492841,
                    "long": -6.1012529
                },
                "to": {
                    "name": "Fort William, Scotland",
                    "lat": 56.8178285,
                    "long": -5.110974
                },
                "path": "",
                "arrival_date": "2018-09-10",
                "departure_date": "2018-09-10",
                "album": null
            },
            {
                "from": {
                    "name": "Fort William, Scotland",
                    "lat": 56.8178285,
                    "long": -5.110974
                },
                "to": {
                    "name": "Glenfinnan Viaduct, Scotland",
                    "lat": 56.8758348,
                    "long": -5.42938801317574
                },
                "path": "",
                "arrival_date": "2018-09-10",
                "departure_date": "2018-09-10",
                "album": null
            },
            {
                "from": {
                    "name": "Glenfinnan Viaduct, Scotland",
                    "lat": 56.8758348,
                    "long": -5.42938801317574
                },
                "to": {
                    "name": "Oban, Scotland",
                    "lat": 56.415695,
                    "long": -5.4734688
                },
                "path": "",
                "arrival_date": "2018-09-10",
                "departure_date": "2018-09-12",
                "album": {
                    "path": ".\/albums\/oban",
                    "cover": ".\/albums\/oban\/boucle\/thumb_IMG_20180911_175716.jpg"
                }
            },
            {
                "from": {
                    "name": "Oban, Scotland",
                    "lat": 56.415695,
                    "long": -5.4734688
                },
                "to": {
                    "name": "Loch Lomond, Scotland",
                    "lat": 56.15619625,
                    "long": -4.65621052110608
                },
                "path": "",
                "arrival_date": "2018-09-12",
                "departure_date": "2018-09-12",
                "album": {
                    "path": ".\/albums\/loch_lomond",
                    "cover": ".\/albums\/loch_lomond\/boucle\/thumb_IMG_20180912_124721.jpg"
                }
            },
            {
                "from": {
                    "name": "Loch Lomond, Scotland",
                    "lat": 56.15619625,
                    "long": -4.65621052110608
                },
                "to": {
                    "name": "Stirling, Scotland",
                    "lat": 56.1181242,
                    "long": -3.9360012
                },
                "path": "",
                "arrival_date": "2018-09-12",
                "departure_date": "2018-09-13",
                "album": null
            },
            {
                "from": {
                    "name": "Stirling, Scotland",
                    "lat": 56.1181242,
                    "long": -3.9360012
                },
                "to": {
                    "name": "Glasgow, Scotland",
                    "lat": 55.856656,
                    "long": -4.2435817
                },
                "path": "",
                "arrival_date": "2018-09-13",
                "departure_date": "2018-09-15",
                "album": null
            }
        ],
        "plane": [
            {
                "from": {
                    "name": "Lyon, France",
                    "lat": 45.7578137,
                    "long": 4.8320114
                },
                "to": {
                    "name": "Edinburgh, Scotland",
                    "lat": 55.9496416,
                    "long": -3.1902352
                },
                "path": "",
                "arrival_date": "2018-08-31",
                "departure_date": "2018-09-04",
                "album": {
                    "path": ".\/albums\/edinburgh",
                    "cover": ".\/albums\/edinburgh\/boucle\/thumb_P9020042.JPG"
                }
            },
            {
                "from": {
                    "name": "Glasgow, Scotland",
                    "lat": 55.856656,
                    "long": -4.2435817
                },
                "to": {
                    "name": "Lyon, France",
                    "lat": 45.7578137,
                    "long": 4.8320114
                },
                "path": "",
                "arrival_date": "2018-09-15",
                "departure_date": "",
                "album": null
            }
        ],
        "boat": [],
        "train": [],
        "walking": []
    }
}